Time,P (deg/s),Q (deg/s),R (deg/s),Pitch deflection (deg),Roll deflection (deg),Yaw deflection ,P_{inertial} (deg/s),Q_{inertial} (deg/s),R_{inertial} (deg/s),q bar (psf),Reynolds Number,V_{Total} (ft/s),V_{Inertial} (ft/s),UBody,VBody,WBody,Aero V_{X Body} (ft/s),Aero V_{Y Body} (ft/s),Aero V_{Z Body} (ft/s),V_{X_{inertial}} (ft/s),V_{Y_{inertial}} (ft/s),V_{Z_{inertial}} (ft/s),V_{X_{ecef}} (ft/s),V_{Y_{ecef}} (ft/s),V_{Z_{ecef}} (ft/s),V_{North} (ft/s),V_{East} (ft/s),V_{Down} (ft/s),F_{Drag} (lbs),F_{Side} (lbs),F_{Lift} (lbs),L/D,F_{Aero x} (lbs),F_{Aero y} (lbs),F_{Aero z} (lbs),F_{Gear x} (lbs),F_{Gear y} (lbs),F_{Gear z} (lbs),F_{Total x} (lbs),F_{Total y} (lbs),F_{Total z} (lbs),L_{Aero} (ft-lbs),M_{Aero} ( ft-lbs),N_{Aero} (ft-lbs),L_{Prop} (ft-lbs),L_{Gear} (ft-lbs),M_{Gear} (ft-lbs),N_{Gear} (ft-lbs),L_{Total} (ft-lbs),M_{Total} (ft-lbs),N_{Total} (ft-lbs),Temperature (R),P_{Ambient} (psf),Altitude ASL (ft),Altitude AGL (ft),Phi (deg),Theta (deg),Psi (deg),Alpha (deg),Beta (deg),X_{ECI} (ft),Earth Position Angle (deg),Distance AGL (ft),navigation/actual-heading-rad,systems/mixture-cmd-norm,guidance/delta-lon-rad,guidance/heading-to-waypoint-rad,guidance/wp-distance-a,guidance/wp-distance,guidance/heading-to-waypoint-positive,guidance/wp-heading-rad,guidance/wp-heading-deg,guidance/selected_target_heading,guidance/x1,guidance/y1,guidance/x2,guidance/y2,guidance/angle-to-heading-rad,guidance/x1y2,guidance/x2y1,guidance/angle-to-heading-sense,ap/roll-autopilot-windup-trigger,ap/limited-roll-angle-rad,ap/limited-roll-angle-error,ap/roll-rate-pid-control,ap/total-limited-roll-rate,ap/limited-roll-rate-error,ap/roll-command-pid-control,ap/roll-cmd-smoother,fcs/wing-leveler-ap-on-off,fcs/roll-ap-error-pid,fcs/heading-true-degrees,fcs/heading-error,fcs/heading-error-bias-switch,fcs/heading-corrected,fcs/heading-command,fcs/heading-roll-error-lag,fcs/heading-roll-error,fcs/altitude-error,fcs/alt-error-lag,fcs/hdot-command,fcs/hdot-error,fcs/elevator-actuator,Nose Gear WOW,Nose Gear stroke (ft),Nose Gear stroke velocity (ft/sec),Nose Gear compress force (lbs),Nose Gear wheel side force (lbs),Nose Gear wheel roll force (lbs),Nose Gear body X force (lbs),Nose Gear body Y force (lbs),Nose Gear wheel velocity vec X (ft/sec),Nose Gear wheel velocity vec Y (ft/sec),Nose Gear wheel rolling velocity (ft/sec),Nose Gear wheel side velocity (ft/sec),Nose Gear wheel slip (deg),Left Main Gear WOW,Left Main Gear stroke (ft),Left Main Gear stroke velocity (ft/sec),Left Main Gear compress force (lbs),Left Main Gear wheel side force (lbs),Left Main Gear wheel roll force (lbs),Left Main Gear body X force (lbs),Left Main Gear body Y force (lbs),Left Main Gear wheel velocity vec X (ft/sec),Left Main Gear wheel velocity vec Y (ft/sec),Left Main Gear wheel rolling velocity (ft/sec),Left Main Gear wheel side velocity (ft/sec),Left Main Gear wheel slip (deg),Right Main Gear WOW,Right Main Gear stroke (ft),Right Main Gear stroke velocity (ft/sec),Right Main Gear compress force (lbs),Right Main Gear wheel side force (lbs),Right Main Gear wheel roll force (lbs),Right Main Gear body X force (lbs),Right Main Gear body Y force (lbs),Right Main Gear wheel velocity vec X (ft/sec),Right Main Gear wheel velocity vec Y (ft/sec),Right Main Gear wheel rolling velocity (ft/sec),Right Main Gear wheel side velocity (ft/sec),Right Main Gear wheel slip (deg), Total Gear Force_X (lbs), Total Gear Force_Y (lbs), Total Gear Force_Z (lbs), Total Gear Moment_L (ft-lbs), Total Gear Moment_M (ft-lbs), Total Gear Moment_N (ft-lbs),IO320 Power Available (engine 0 in ft-lbs/sec),IO320 HP (engine 0),IO320 equivalent ratio (engine 0),IO320 MAP (engine 0 in inHg),Fixed-Pitch 75-inch Two-Blade Propeller Torque (engine 0),vrp-gc-latitude deg,vrp-longitude deg,vrp-radius-ft
0,0,0,0,-0.056417592,4.625387688,-0.003473134,0.002954345,0,-0.002954345,3.59E-32,1.71E-10,5.50E-15,1078.990358,3.81E-15,1.07E-15,3.81E-15,3.81E-15,1.07E-15,3.81E-15,1074.611169,-97.11348179,0,1.55E-15,5.27E-15,-2.69E-31,3.81E-15,1.07E-15,3.81E-15,-2.17E-31,0,-1.80E-30,8.281540697,-2.17E-31,0,-1.80E-30,6.51E-06,5.36E-08,-31.18634596,6.51E-06,5.36E-08,-31.18634596,-6.47E-32,3.78E-30,7.81E-33,1.50E-31,-1.121842369,136.2821907,-1.61E-15,-1.121842369,136.2821907,-1.61E-15,518.6536278,2115.868247,4.600000001,4.600000001,7.54E-16,4.44E-15,3.25E-16,0,0,-1331760.152,0,4.600000001,0.003,0.999465398,1.66092232,1.50698128,0.53182123,34559483.8,7.78998128,1.50698128,86.3500274,1.50698128,0.9999955,0.002999996,0.063771741,0.997964511,1.50398128,0.99796002,0.000191315,1,1,0.523,-1.32E-17,-3.95E-16,0.348,-3.95E-16,-9.86E-16,-2.90E-16,-1,6.58E-16,3.25E-16,-3.25E-16,0,-3.25E-16,-5.66E-18,-1.18E-20,-1.32E-17,-4.6,-0.019086377,-0.002289487,-0.002289487,0.002,1,0.017326,3.81E-15,-31.18634596,5.36E-08,-0.686093099,6.51E-06,5.36E-08,3.81E-15,1.07E-15,3.81E-15,1.07E-15,0,0,0,0,0,0,0,0,0,0,0,0,0,0,0,0,0,0,0,0,0,0,0,0,0,0,0,6.51E-06,5.36E-08,-31.1863,-1.12184,136.282,-1.61E-15,-825,-1.5,1.29953,29.9154,1.50E-31,45.00000069,-95.16383886,20925654.86
0.008333,0.0005,0.0385,0.0008,0.1375,23.96327978,-0.086573456,0.002484217,0.038543356,-0.002983286,8.26E-05,8217.593821,0.263714279,1078.99039,-0.000975276,1.13E-07,0.263712475,-0.000975276,1.13E-07,0.263712475,1074.627949,-96.92779957,-0.187162504,0.016721354,0.185029226,-0.187162504,-0.000975276,1.13E-07,0.263712475,-0.000499569,1.94E-07,-0.004487677,8.983104865,-0.000499569,1.94E-07,-0.004487677,3.37E-05,2.78E-07,-161.5691111,-0.000465828,4.72E-07,-161.5735988,-2.62E-05,0.003316197,2.85E-05,-9.83E-09,-5.812001015,706.0459226,4.75E-13,-5.812027236,706.0492388,2.85E-05,518.6536278,2115.868247,4.600001931,4.600001931,6.84E-15,-5.29E-12,360,0,0,-1331751.197,3.48E-05,4.600001931,6.28618531,0.999465398,1.66092232,1.50698128,0.53182123,34559483.8,7.78998128,1.50698128,86.3500274,1.50698128,0.9999955,0.002999996,0.063771741,0.997964511,1.50398128,0.99796002,0.000191315,1,1,0.523,-1.19E-16,-4.86E-15,0.348,8.21E-06,2.05E-05,6.03E-06,-1,2.23E-13,360.026518,-360.026518,360,-0.026518101,-0.000462741,-9.62E-07,-9.62E-07,-4.60000193,-0.057100751,-0.006849463,0.256863012,0.002,1,0.017324,0.260772,-161.5691111,-0.651946984,-3.554486704,3.37E-05,2.78E-07,0.0021192,3.56E-05,0.0021192,3.56E-05,0.963742,0,0,0,0,0,0,0,0,0,0,0,0,0,0,0,0,0,0,0,0,0,0,0,0,0,0,3.37E-05,2.78E-07,-161.569,-5.812,706.046,4.75E-13,-825,-1.5,1.29953,29.9154,-9.83E-09,45.00000069,-95.16383886,20925654.86
0.016666,0.0016,0.2382,0.0008,0.3101,41.88807301,-0.120519354,0.001338367,0.238229366,-0.003704719,0.000303743,15754.43784,0.505582277,1078.990367,-0.002434116,-0.00010879,0.505576406,-0.002434116,-0.00010879,0.505576406,1074.643199,-96.75783259,-0.35921569,0.031913081,0.35434317,-0.35921569,-0.002431282,-0.000108755,0.505576419,-0.001836153,-3.21E-06,-0.01936049,10.54405024,-0.001836153,-3.21E-06,-0.01936049,0.001642169,1.98E-05,-282.4259076,-0.000193984,1.66E-05,-282.4452681,0.000124118,-0.031861797,0.000210543,-6.12E-08,-10.15957808,1234.189101,2.74E-05,-10.15945403,1234.157239,0.00023798,518.6536428,2115.868569,4.595788416,4.595788416,-3.92E-06,0.000321182,359.9999998,0,0,-1331742.242,6.96E-05,4.595788416,6.2861853,0.99946555,1.66092232,1.50698128,0.53182123,34559483.8,7.78998128,1.50698128,86.3500274,1.50698128,0.9999955,0.002999991,0.063771741,0.997964511,1.50398129,0.99796002,0.000191315,1,1,0.523,6.84E-08,2.87E-06,0.348,3.11E-05,7.77E-05,3.14E-05,-1,-0.000142911,360.026518,-360.026518,360,-0.02651786,-0.000462737,-2.88E-06,-2.81E-06,-4.59578842,-0.094782191,-0.011369507,0.494206912,0.002,1,0.021513,0.487406,-282.4259076,-0.84675232,-6.211727798,0.001642169,1.98E-05,0.0166752,-3.64E-05,0.0166752,-3.64E-05,-0.12493,0,0,0,0,0,0,0,0,0,0,0,0,0,0,0,0,0,0,0,0,0,0,0,0,0,0,0.00164217,1.98E-05,-282.426,-10.1596,1234.19,2.74E-05,-825,-1.5,1.29953,29.9154,-6.12E-08,45.00000069,-95.16383886,20925654.85
0.024999,0.0042,0.5873,0.0018,0.5255,58.22038328,-0.125599275,-0.001245442,0.587282677,-0.004709109,0.000641038,22887.15022,0.734481053,1078.990394,-0.004202363,-0.00021393,0.734469,-0.004202363,-0.00021393,0.734469,1074.65761,-96.5972018,-0.522298743,0.046265018,0.5143209,-0.522298743,-0.004172798,-0.000213707,0.734469168,-0.003875103,-1.02E-05,-0.046971073,12.12124606,-0.003875103,-1.02E-05,-0.046971073,0.015883336,0.000119779,-392.5476268,0.012008233,0.000109611,-392.5945979,0.00143922,-0.161167561,0.000652126,-1.83E-07,-14.12135978,1715.478718,-4.79E-05,-14.11992075,1715.31755,0.000604192,518.6536611,2115.868962,4.590643585,4.590643585,-1.74E-05,0.002306347,359.9999935,0,0,-1331733.287,0.000104448,4.590643585,6.28618519,0.999465736,1.66092232,1.50698128,0.53182123,34559483.8,7.78998128,1.50698128,86.3500274,1.50698128,0.9999955,0.002999882,0.063771741,0.997964511,1.50398139,0.99796002,0.000191308,1,1,0.523,3.03E-07,1.19E-05,0.348,8.52E-05,0.000213063,9.84E-05,-1,-0.000494666,360.026512,-360.026512,360,-0.026511606,-0.000462628,-4.79E-06,-4.49E-06,-4.59064358,-0.132112105,-0.015847388,0.71862178,0.002,1,0.026506,0.689673,-392.5476268,-0.778615504,-8.620164454,0.015883336,0.000119779,0.0428547,-1.13E-05,0.0428547,-1.13E-05,-0.0147604,0,0,0,0,0,0,0,0,0,0,0,0,0,0,0,0,0,0,0,0,0,0,0,0,0,0,0.0158833,0.000119779,-392.548,-14.1214,1715.48,-4.79E-05,-825,-1.5,1.29953,29.9154,-1.83E-07,45.00000069,-95.16383886,20925654.85
0.033332,0.0086,1.0724,0.0028,0.3757,73.36011309,-0.285728881,-0.005625044,1.072433129,-0.005755981,0.001076219,29655.16254,0.95167599,1078.990481,-0.006291618,-0.000297058,0.951655146,-0.006291618,-0.000297058,0.951655146,1074.67128,-96.44499829,-0.677286643,0.059877939,0.665871328,-0.677286643,-0.006172027,-0.000296185,0.95165593,-0.006505728,-1.68E-05,-0.089086557,13.69355744,-0.006505728,-1.68E-05,-0.089086557,0.062259863,0.000453066,-494.6142622,0.055754135,0.000436315,-494.7033487,0.005237017,-0.42774249,0.00142076,-4.09E-07,-17.79445037,2161.715301,-0.000259759,-17.78921376,2161.287558,0.001161001,518.6536861,2115.8695,4.583614606,4.583614606,-5.24E-05,0.007200173,359.9999789,0,0,-1331724.332,0.000139264,4.583614606,6.28618494,0.999465989,1.66092232,1.50698128,0.53182123,34559483.8,7.78998128,1.50698128,86.3500274,1.50698128,0.999995501,0.002999627,0.063771741,0.997964511,1.50398165,0.997960021,0.000191291,1,1,0.523,9.14E-07,3.48E-05,0.348,0.000184504,0.00046126,0.000238856,-1,-0.001291931,360.026497,-360.026497,360,-0.026496977,-0.000462372,-6.70E-06,-5.78E-06,-4.58361461,-0.169081728,-0.020282057,0.931373872,0.002,1,0.033162,0.869846,-494.6142622,-2.192537432,-10.81925391,0.062259863,0.000453066,0.0795142,0.00017569,0.0795142,0.00017569,0.126997,0,0,0,0,0,0,0,0,0,0,0,0,0,0,0,0,0,0,0,0,0,0,0,0,0,0,0.0622599,0.000453066,-494.614,-17.7945,2161.72,-0.000259759,-825,-1.5,1.29953,29.9154,-4.09E-07,45.00000069,-95.16383886,20925654.84
0.041665,0.0117,1.6837,0.0052,0.6536,87.02809937,-0.251029584,-0.00875657,1.683742946,-0.00813742,0.001593223,36081.80785,1.157915858,1078.990359,-0.008738633,-0.000621775,1.157882716,-0.008738633,-0.000621775,1.157882716,1074.683999,-96.30065973,-0.824696984,0.072538513,0.809556782,-0.824696984,-0.008412527,-0.000619265,1.157885132,-0.024285355,-3.22E-06,-2.373951077,97.75237485,2.37406675,9.82E-06,-0.006368774,0.166010123,0.001274572,-589.0048884,2.540076873,0.001284392,-589.0112572,0.012505766,-10.58900486,-0.083406053,-7.89E-07,-21.1936464,2574.670027,-0.000401963,-21.18114142,2564.081022,-0.083808016,518.6537174,2115.870172,4.574820191,4.574820191,-0.000123886,0.016136758,359.9999555,90.43240758,-0.030766573,-1331715.377,0.000174079,4.574820191,6.28618453,0.999466307,1.66092232,1.50698128,0.53182123,34559483.8,7.78998128,1.50698128,86.3500274,1.50698128,0.999995502,0.002999219,0.063771741,0.997964511,1.50398206,0.997960022,0.000191265,1,1,0.523,2.16E-06,7.98E-05,0.348,0.000284251,0.000710628,0.00044302,-1,-0.002654015,360.026474,-360.026474,360,-0.026473611,-0.000461965,-8.59E-06,-6.43E-06,-4.57482019,-0.205678906,-0.024672059,1.13321307,0.002,1,0.041275,1.02942,-589.0048884,-1.742736002,-12.79209742,0.166010124,0.001274572,0.12574,-8.18E-05,0.12574,-8.18E-05,-0.0361597,0,0,0,0,0,0,0,0,0,0,0,0,0,0,0,0,0,0,0,0,0,0,0,0,0,0,0.16601,0.00127457,-589.005,-21.1936,2574.67,-0.000401963,-825,-1.5,1.29953,29.9154,-7.89E-07,45.00000069,-95.16383886,20925654.83
0.049998,0.0172,2.4089,0.0073,1.0609,99.87567304,-0.150394531,-0.014204046,2.408948091,-0.010229973,0.002178691,42193.72351,1.354055471,1078.990418,-0.011189431,-0.000793191,1.354009005,-0.011189431,-0.000793191,1.354009005,1074.696239,-96.16332327,-0.964841001,0.084721334,0.946240115,-0.964841001,-0.010476518,-0.000787941,1.354014712,-0.033208481,-9.85E-06,-3.248751815,97.82897831,3.248915311,9.60E-06,-0.006360817,0.356226709,0.002615679,-676.2994756,3.60514202,0.002625284,-676.3058364,0.021662042,-14.51777899,-0.113477512,-1.29E-06,-24.33993895,2957.008389,-0.001383929,-24.3182782,2942.49061,-0.114861441,518.6537547,2115.870973,4.564350329,4.564350329,-0.000221501,0.030167388,359.9999123,90.47347735,-0.03356325,-1331706.421,0.000208895,4.564350329,6.28618378,0.999466685,1.66092232,1.50698128,0.53182123,34559483.8,7.78998128,1.50698128,86.3500274,1.50698128,0.999995505,0.002998464,0.063771741,0.997964511,1.50398281,0.997960025,0.000191217,1,1,0.523,3.87E-06,0.000136423,0.348,0.00043592,0.0010898,0.00071195,-1,-0.00366897,360.02643,-360.02643,360,-0.026430365,-0.00046121,-1.05E-05,-6.61E-06,-4.56435033,-0.241892454,-0.029016054,1.32499866,0.002,1,0.050674,1.17017,-676.2994756,-0.68651194,-14.52236175,0.356226709,0.002615679,0.180816,1.95E-05,0.180816,1.95E-05,0.00758161,0,0,0,0,0,0,0,0,0,0,0,0,0,0,0,0,0,0,0,0,0,0,0,0,0,0,0.356227,0.00261568,-676.299,-24.3399,2957.01,-0.00138393,-825,-1.5,1.29953,29.9154,-1.29E-06,45.00000069,-95.16383886,20925654.82
0.058331,0.0260,3.2412,0.0085,0.3445,111.7116313,-0.54619871,-0.023045598,3.241212064,-0.011484247,0.002821215,48014.03465,1.540836933,1078.990651,-0.014083765,-0.000814604,1.540772351,-0.014083765,-0.000814604,1.540772351,1074.708022,-96.03272758,-1.098502273,0.09644745,1.076182651,-1.098502273,-0.012732699,-0.000804768,1.540784113,-0.042990977,-2.73E-06,-4.239655291,98.617329,4.239871137,2.00E-05,-0.004237303,0.663811383,0.004816657,-756.8400765,4.90368252,0.004836651,-756.8443138,0.038913445,-19.34707863,-0.147266845,-2.05E-06,-27.2471636,3310.362848,-0.002830314,-27.2082522,3291.015769,-0.150097159,518.6537976,2115.871895,4.552285217,4.552285217,-0.000364541,0.050241151,359.9998515,90.52370996,-0.030290925,-1331697.466,0.000243711,4.552285217,6.28618272,0.999467121,1.66092232,1.50698128,0.53182123,34559483.8,7.78998128,1.50698128,86.3500274,1.50698128,0.999995508,0.002997404,0.063771741,0.997964511,1.50398387,0.997960028,0.00019115,1,1,0.523,6.36E-06,0.000220833,0.348,0.000674663,0.001686657,0.00110975,-1,-0.005411251,360.02637,-360.02637,360,-0.026369613,-0.00046015,-1.23E-05,-5.98E-06,-4.55228522,-0.277711984,-0.033312796,1.50747132,0.002,1,0.061207,1.29334,-756.8400765,-4.352257094,-15.9866703,0.663811383,0.004816657,0.24366,0.000602328,0.24366,0.000602328,0.142905,0,0,0,0,0,0,0,0,0,0,0,0,0,0,0,0,0,0,0,0,0,0,0,0,0,0,0.663811,0.00481666,-756.84,-27.2472,3310.36,-0.00283031,-825,-1.5,1.29953,29.9154,-2.05E-06,45.00000069,-95.16383886,20925654.81
0.066664,0.0289,4.1721,0.0131,0.9976,122.6118978,-0.323730825,-0.025917922,4.172105073,-0.016037114,0.003511356,53565.79858,1.719000174,1078.990229,-0.017378902,-0.00151248,1.718911657,-0.017378902,-0.00151248,1.718911657,1074.718582,-95.90819281,-1.226119536,0.106949705,1.200064266,-1.226119536,-0.015061336,-0.001494983,1.718933541,-0.053535225,-2.12E-05,-5.31800747,99.33660514,5.318276922,2.59E-05,0.000232003,1.120647902,0.008432965,-831.0454032,6.438924824,0.008458857,-831.0451712,0.046345161,-24.76541283,-0.18387349,-3.12E-06,-29.93287315,3636.703448,-0.003460723,-29.88653111,3611.938036,-0.187334214,518.653846,2115.872934,4.538700189,4.538700189,-0.000581306,0.07725017,359.9997802,90.5792641,-0.050412287,-1331688.51,0.000278527,4.538700189,6.28618147,0.999467612,1.66092232,1.50698128,0.53182123,34559483.8,7.78998128,1.50698128,86.3500274,1.50698128,0.999995512,0.002996159,0.063771741,0.997964511,1.50398512,0.997960032,0.00019107,1,1,0.523,1.01E-05,0.000349772,0.348,0.000853757,0.002134393,0.001580781,-1,-0.008225423,360.026298,-360.026298,360,-0.026298277,-0.000458905,-1.42E-05,-4.06E-06,-4.53870019,-0.313127841,-0.037561129,1.68137241,0.002,1,0.072729,1.40027,-831.0454032,-2.149298772,-17.16235097,1.120647902,0.008432965,0.313553,-0.000220191,0.313553,-0.000220191,-0.0374131,0,0,0,0,0,0,0,0,0,0,0,0,0,0,0,0,0,0,0,0,0,0,0,0,0,0,1.12065,0.00843297,-831.045,-29.9329,3636.7,-0.00346072,-825,-1.5,1.29953,29.9154,-3.12E-06,45.00000069,-95.16383886,20925654.8
0.074997,0.0372,5.1938,0.0158,1.1304,132.6392754,-0.328594013,-0.034232406,5.193829999,-0.018736558,0.004241234,58870.30976,1.889228556,1078.990396,-0.021132541,-0.001638842,1.889109649,-0.021132541,-0.001638842,1.889109649,1074.729204,-95.78933284,-1.348160299,0.117515019,1.318271052,-1.348160299,-0.017439201,-0.001611636,1.889147377,-0.064649686,-3.99E-05,-6.4744103,100.1460441,6.4747284,1.62E-05,0.007775862,1.758355908,0.012905225,-899.2927402,8.233084308,0.012921417,-899.2849643,0.06633937,-30.75644084,-0.222571618,-4.62E-06,-32.40804628,3937.815917,-0.006857031,-32.34171153,3907.059476,-0.229428649,518.6538995,2115.874084,4.523663986,4.523663986,-0.00082212,0.112016318,359.9996707,90.64091298,-0.049702174,-1331679.554,0.000313343,4.523663986,6.28617956,0.999468155,1.66092232,1.50698128,0.53182123,34559483.8,7.78998128,1.50698128,86.3500274,1.50698128,0.999995517,0.002994248,0.063771741,0.997964511,1.50398703,0.997960037,0.000190948,1,1,0.523,1.43E-05,0.000480899,0.348,0.001130031,0.002825077,0.002109563,-1,-0.009291892,360.026189,-360.026189,360,-0.026188784,-0.000456994,-1.61E-05,-1.70E-06,-4.52366399,-0.348131046,-0.041759977,1.8473874,0.002,1,0.085109,1.49219,-899.2927402,-2.111385305,-18.02608438,1.758355908,0.012905225,0.38972,9.90E-05,0.38972,9.90E-05,0.0175757,0,0,0,0,0,0,0,0,0,0,0,0,0,0,0,0,0,0,0,0,0,0,0,0,0,0,1.75836,0.0129052,-899.293,-32.408,3937.82,-0.00685703,-825,-1.5,1.29953,29.9154,-4.62E-06,45.00000069,-95.16383886,20925654.78
0.08333,0.0466,6.2991,0.0185,0.7103,141.8517954,-0.578178343,-0.043653915,6.299113058,-0.021476968,0.005004363,63947.66328,2.05216695,1078.990459,-0.025405835,-0.001886103,2.052008815,-0.025405835,-0.001886103,2.052008815,1074.739244,-95.67561585,-1.465064512,0.127497981,1.431334843,-1.465064512,-0.019843927,-0.001845388,2.052070176,-0.076274415,-4.12E-05,-7.70081545,100.9619735,7.701169575,2.89E-05,0.019067592,2.60747928,0.019012886,-961.9382992,10.30864885,0.019041829,-961.9192317,0.091556429,-37.30139656,-0.263381417,-6.67E-06,-34.68897806,4215.386864,-0.010711833,-34.5974283,4178.085467,-0.27409325,518.6539579,2115.87534,4.507240076,4.507240076,-0.001132363,0.155296498,359.9995384,90.70934041,-0.052659334,-1331670.599,0.000348159,4.507240076,6.28617725,0.999468748,1.66092232,1.50698128,0.53182123,34559483.8,7.78998128,1.50698128,86.3500274,1.50698128,0.999995524,0.002991939,0.063771741,0.997964511,1.50398934,0.997960044,0.000190801,1,1,0.523,1.98E-05,0.000657884,0.348,0.001471491,0.003678727,0.002781508,-1,-0.012034735,360.026056,-360.026056,360,-0.026056465,-0.000454685,-1.79E-05,1.88E-06,-4.50724008,-0.382713245,-0.04590834,2.00616184,0.002,1,0.098224,1.57027,-961.9382992,-4.400963144,-18.55516331,2.60747928,0.019012886,0.471437,0.000377345,0.471437,0.000377345,0.0491912,0,0,0,0,0,0,0,0,0,0,0,0,0,0,0,0,0,0,0,0,0,0,0,0,0,0,2.60748,0.0190129,-961.938,-34.689,4215.39,-0.0107118,-825,-1.5,1.29953,29.9154,-6.67E-06,45.00000069,-95.16383886,20925654.77
0.091663,0.0525,7.4812,0.0234,0.5959,119.5016089,0.632121443,-0.049575447,7.481164042,-0.026297642,0.005795454,68816.74207,2.208421331,1078.990147,-0.030263203,-0.002524419,2.208212522,-0.030263203,-0.002524419,2.208212522,1074.748472,-95.56657635,-1.577245965,0.136670253,1.539721139,-1.577245965,-0.022254817,-0.002465546,2.208307818,-0.088351023,-6.80E-05,-8.990602827,101.7600309,8.99096935,3.30E-05,0.034860471,6.543811308,0.047911897,-1804.353017,15.53478066,0.047944934,-1804.318156,0.109628915,-44.38284852,-0.306037559,-9.47E-06,-54.93933331,3662.029469,-0.102007672,-54.82971386,3617.646621,-0.408045231,518.6540211,2115.876697,4.489486676,4.489486676,-0.00152132,0.207786999,359.9993828,90.78518043,-0.065494099,-1331661.643,0.000382975,4.489486676,6.28617453,0.999469389,1.66092232,1.50698128,0.53182123,34559483.8,7.78998128,1.50698128,86.3500274,1.50698128,0.999995532,0.002989223,0.063771741,0.997964511,1.50399205,0.997960052,0.000190628,1,1,0.523,2.66E-05,0.000878028,0.348,0.001795032,0.004487581,0.00354716,-1,-0.015176883,360.025901,-360.025901,360,-0.02590081,-0.000451969,-1.97E-05,6.86E-06,-4.48948668,-0.416866657,-0.050005284,2.15830253,0.002,1,0.11196,1.63557,-1019.314106,1.846167949,-18.72806927,3.696841063,0.027066637,0.558021,-0.000174183,0.558021,-0.000174183,-0.0132784,1,0.0033825,2.34668,-393.7353007,-11.01923225,-7.234282192,1.427894426,0.010376366,0.553735,0.00201556,0.553735,0.00201556,0.211702,1,0.0031602,2.33899,-391.3036103,-4.911774228,-7.189603612,1.419075819,0.010468894,0.557178,0.00201576,0.557178,0.00201576,0.210519,6.54381,0.0479119,-1804.35,-54.9393,3662.03,-0.102008,-825,-1.5,1.29953,29.9154,-9.47E-06,45.00000069,-95.16383886,20925654.75
0.099996,0.0476,8.4770,0.0181,2.9569,110.0846837,0.701978511,-0.04461284,8.476970916,-0.0210334,0.005893687,69397.52461,2.227058405,1078.988065,-0.038045164,-0.004661469,2.226728537,-0.038045164,-0.004661469,2.226728537,1074.747264,-95.55637762,-1.594122735,0.135404898,1.549266717,-1.594122735,-0.027546677,-0.004584906,2.226883315,-0.089993151,0.000369271,-9.568641525,106.3263305,9.568782543,0.000557635,0.073483809,9.570349311,0.069441169,-2029.882715,19.13913185,0.069998804,-2029.809231,0.109204763,-52.21864949,-0.33236096,-1.50E-05,-62.18338336,3420.313241,-0.176170843,-62.07419356,3368.094592,-0.508531803,518.6540888,2115.878152,4.470457092,4.470457092,-0.001959973,0.270127525,359.9991862,90.97884192,-0.119926222,-1331652.687,0.000417791,4.470457092,6.2861711,0.999470077,1.66092232,1.50698128,0.53182123,34559483.8,7.78998128,1.50698128,86.3500274,1.50698128,0.999995543,0.002985793,0.063771741,0.997964511,1.50399548,0.997960062,0.000190409,1,1,0.523,3.42E-05,0.001118114,0.348,0.001948561,0.004871402,0.004213219,-1,-0.017329131,360.025704,-360.025704,360,-0.025704277,-0.00044854,-2.15E-05,1.27E-05,-4.47045709,-0.45058403,-0.05404994,2.17283338,0.002,1,0.12622,1.57721,-1015.791787,5.770927569,-17.55810374,4.789315576,0.034749944,0.626431,-0.00231179,0.626431,-0.00231179,-0.204075,1,0.023563,2.38211,-508.3764478,-3.334066342,-8.787489935,2.396791924,0.017289677,0.621309,-0.000622627,0.621309,-0.000622627,-0.04905,1,0.023276,2.37514,-505.7144805,-3.296632373,-8.741476766,2.384241811,0.017401548,0.623996,-0.000622389,0.623996,-0.000622389,-0.048759,9.57035,0.0694412,-2029.88,-62.1834,3420.31,-0.176171,-825,-1.5,1.29953,29.9154,-1.50E-05,45.00000069,-95.16383886,20925654.73
0.108329,0.0722,9.3943,0.0123,0.0481,101.8526696,1.470081226,-0.069255921,9.394306557,-0.015187473,0.00604231,70267.09756,2.254963172,1078.988758,-0.046019187,-0.004042505,2.25448992,-0.046019187,-0.004042505,2.25448992,1074.749404,-95.53974105,-1.617389289,0.13748763,1.565250122,-1.617389289,-0.03260996,-0.003949198,2.254723908,-0.092188225,0.000597873,-9.984907973,108.3100149,9.984709821,0.00076314,0.111604075,13.41024149,0.092768334,-2254.720687,23.39495131,0.093531473,-2254.609083,0.178318898,-56.35119829,-0.345609158,-2.19E-05,-66.64823606,3208.700676,-0.264380031,-66.46993905,3152.349478,-0.609989189,518.6541535,2115.87954,4.452301051,4.452301051,-0.002357299,0.340766107,359.9990328,91.16937275,-0.102715014,-1331643.731,0.000452607,4.452301051,6.28616843,0.999470732,1.66092232,1.50698128,0.53182123,34559483.8,7.78998128,1.50698128,86.3500274,1.50698128,0.999995551,0.002983115,0.063771741,0.997964511,1.50399816,0.99796007,0.000190238,1,1,0.523,4.11E-05,0.001317498,0.348,0.002578111,0.006445277,0.005063266,-1,-0.016204382,360.025551,-360.025551,360,-0.025550818,-0.000445862,-2.32E-05,1.79E-05,-4.45230105,-0.48386731,-0.058042534,2.19668137,0.002,1,0.13895,1.53385,-1017.042362,7.814682967,-16.3257971,6.049134889,0.041845559,0.688269,0.000668627,0.688269,0.000668627,0.0601302,1,0.043009,2.42729,-620.6150292,-12.80563461,-9.962415363,3.691115291,0.025410614,0.682064,0.00178597,0.682064,0.00178597,0.155104,1,0.042664,2.41672,-617.0632954,-9.332677988,-9.905401198,3.669991311,0.02551216,0.683911,0.0017864,0.683911,0.0017864,0.154788,13.4102,0.0927683,-2254.72,-66.6482,3208.7,-0.26438,-825,-1.5,1.29953,29.9154,-2.19E-05,45.00000069,-95.16383886,20925654.71
0.116662,0.0718,10.2430,0.0001,2.2975,92.28115566,-0.009920202,-0.068859469,10.24304482,-0.002941347,0.006057624,70356.09796,2.257818287,1078.986401,-0.054697088,-0.006428233,2.257146501,-0.054697088,-0.006428233,2.257146501,1074.74693,-95.54085781,-1.62328673,0.134956342,1.563480219,-1.62328673,-0.03818761,-0.006310914,2.2574865,-0.092589226,0.001318194,-10.21466999,110.3224476,10.21391506,0.001581799,0.154899971,18.07423521,0.127664955,-2471.193615,28.28815027,0.129246754,-2471.038715,0.196611757,-59.78576479,-0.362739725,-3.09E-05,-72.64216922,2956.837112,-0.378548717,-72.44558839,2897.051348,-0.741288442,518.6542209,2115.880988,4.433364268,4.433364268,-0.002959891,0.419048844,359.9989271,91.38816822,-0.163126999,-1331634.775,0.000487422,4.433364268,6.28616658,0.999471416,1.66092232,1.50698128,0.53182123,34559483.8,7.78998128,1.50698128,86.3500274,1.50698128,0.999995556,0.002981269,0.063771741,0.997964511,1.50400001,0.997960076,0.000190121,1,1,0.523,5.17E-05,0.001676007,0.348,0.00292977,0.007324426,0.006134756,-1,-0.024038964,360.025445,-360.025445,360,-0.025445073,-0.000444017,-2.50E-05,2.67E-05,-4.43336427,-0.516720485,-0.06198355,2.19550295,0.002,1,0.15188,1.47043,-1008.597986,-0.536479178,-14.81214607,7.377009655,0.052105762,0.743612,-0.000830283,0.743612,-0.000830283,-0.0572692,1,0.06338,2.4441,-733.3060823,-0.112973041,-10.76943286,5.363300973,0.037737,0.736491,-0.000879403,0.736491,-0.000879403,-0.0572171,1,0.062947,2.43359,-729.289547,-5.553541177,-10.71044548,5.33392458,0.037822192,0.736569,-0.000878861,0.736569,-0.000878861,-0.0571426,18.0742,0.127665,-2471.19,-72.6422,2956.84,-0.378549,-825,-1.5,1.29953,29.9154,-3.09E-05,45.00000068,-95.16383886,20925654.69
0.124995,0.0910,11.0120,0.0001,1.4744,81.68586962,-0.274352413,-0.088008812,11.01202366,-0.003028445,0.005946335,69706.83579,2.23698162,1078.986103,-0.063959071,-0.006703986,2.236057035,-0.063959071,-0.006703986,2.236057035,1074.745014,-95.55922222,-1.612773152,0.132983318,1.544462678,-1.612773152,-0.04427181,-0.006564275,2.236533855,-0.090893578,0.001445683,-10.25873101,112.865301,10.25713561,0.001718074,0.202464029,23.49153854,0.165730412,-2668.344419,33.74867415,0.167448486,-2668.141955,0.244270789,-62.41536908,-0.361552388,-4.23E-05,-76.04530502,2672.634416,-0.503489878,-75.80107651,2610.219047,-0.865042266,518.6542875,2115.882421,4.4146282,4.4146282,-0.003558553,0.504404118,359.9989221,91.63841344,-0.171709348,-1331625.819,0.000522238,4.4146282,6.28616649,0.999472093,1.66092232,1.50698128,0.53182123,34559483.8,7.78998128,1.50698128,86.3500274,1.50698128,0.999995556,0.002981183,0.063771741,0.997964511,1.50400009,0.997960076,0.000190115,1,1,0.523,6.21E-05,0.001988642,0.348,0.003576701,0.008941752,0.007310213,-1,-0.024421459,360.02544,-360.02544,360,-0.025440126,-0.00044393,-2.67E-05,3.54E-05,-4.4146282,-0.549144719,-0.065873124,2.17066073,0.002,1,0.16405,1.38914,-989.8665969,-3.492330416,-13.0623283,8.71473687,0.061480811,0.791943,0.00036043,0.791943,0.00036043,0.0318569,1,0.083666,2.43694,-841.7074535,-3.53502373,-11.10743089,7.410133121,0.052110173,0.78272,0.000293762,0.78272,0.000293762,0.0317084,1,0.083146,2.42364,-836.7703689,-3.521780704,-11.0422796,7.366668548,0.052139428,0.782835,0.000294588,0.782835,0.000294588,0.031778,23.4915,0.16573,-2668.34,-76.0453,2672.63,-0.50349,-825,-1.5,1.29953,29.9154,-4.23E-05,45.00000068,-95.16383886,20925654.67
0.133328,0.1033,11.6927,0.0024,3.4997,70.31099526,-0.362660147,-0.10029997,11.69271197,-0.005319397,0.005726487,68406.10486,2.195238528,1078.984577,-0.073654462,-0.008170229,2.193987344,-0.073654462,-0.008170229,2.193987344,1074.740554,-95.59255904,-1.587778556,0.128466064,1.510472749,-1.587778556,-0.050822414,-0.008003965,2.194635554,-0.087635902,0.001620784,-10.13554229,115.6551378,10.13277581,0.001946936,0.25248931,29.63312989,0.214568983,-2847.834075,39.7659057,0.216515919,-2847.581585,0.271732049,-64.22863317,-0.355662351,-5.61E-05,-79.00061809,2363.370755,-0.643973442,-78.72894211,2299.142122,-0.999635793,518.6543533,2115.883833,4.3961608,4.3961608,-0.004316853,0.596167288,359.9989149,91.92275746,-0.213243682,-1331616.863,0.000557054,4.3961608,6.28616637,0.99947276,1.66092232,1.50698128,0.53182123,34559483.8,7.78998128,1.50698128,86.3500274,1.50698128,0.999995557,0.002981058,0.063771741,0.997964511,1.50400022,0.997960077,0.000190107,1,1,0.523,7.53E-05,0.002419123,0.348,0.004221785,0.010554462,0.008744228,-1,-0.0307673,360.025433,-360.025433,360,-0.025432963,-0.000443805,-2.85E-05,4.69E-05,-4.3961608,-0.581145517,-0.069711914,2.12492364,0.002,1,0.17545,1.29346,-962.5441308,-2.096615708,-11.16005555,10.01591539,0.072522918,0.832828,-0.000345774,0.832828,-0.000345774,-0.0167667,1,0.1038,2.40654,-945.5568981,-0.272761481,-10.96334478,9.838907037,0.071053786,0.821086,-0.000221436,0.821086,-0.000221436,-0.00270542,1,0.10317,2.39144,-939.7330459,-0.262337179,-10.8958196,9.778307468,0.070992279,0.821565,-0.000220299,0.821565,-0.000220299,-0.00263917,29.6331,0.214569,-2847.83,-79.0006,2363.37,-0.643973,-825,-1.5,1.29953,29.9154,-5.61E-05,45.00000068,-95.16383886,20925654.66
0.141661,0.1325,12.2786,0.0054,0.1973,58.34606257,0.600374156,-0.129468101,12.27861345,-0.00834652,0.005413827,66512.45903,2.134468114,1078.984578,-0.08364016,-0.00807414,2.132813461,-0.08364016,-0.00807414,2.132813461,1074.73641,-95.63977593,-1.549614692,0.12426421,1.462602763,-1.549614692,-0.057815714,-0.007880273,2.133670399,-0.082842414,0.001624166,-9.867340391,119.109764,9.863007691,0.001937525,0.303887193,36.43229642,0.271963105,-3009.373347,46.29530411,0.27390063,-3009.069459,0.331825408,-65.31653891,-0.340227741,-7.23E-05,-79.35202257,2034.490746,-0.776796266,-79.02026946,1969.174207,-1.117024007,518.6544175,2115.885212,4.378120195,4.378120195,-0.005177862,0.693602628,359.9988869,92.24575374,-0.216735615,-1331607.908,0.00059187,4.378120195,6.28616588,0.999473412,1.66092232,1.50698128,0.53182123,34559483.8,7.78998128,1.50698128,86.3500274,1.50698128,0.999995558,0.002980568,0.063771741,0.997964511,1.50400071,0.997960078,0.000190076,1,1,0.523,9.04E-05,0.002891459,0.348,0.005203287,0.013008218,0.010530714,-1,-0.035175758,360.025405,-360.025405,360,-0.025404899,-0.000443315,-3.02E-05,6.02E-05,-4.3781202,-0.612729279,-0.073500688,2.06016971,0.002,1,0.18598,1.18576,-927.6404384,0.724089144,-9.177654823,11.23043491,0.083833171,0.866011,0.00175637,0.866011,0.00175637,0.121335,1,0.1236,2.35642,-1044.459845,-18.7894925,-10.33368364,12.64443304,0.094181404,0.85148,0.00211707,0.85148,0.00211707,0.151723,1,0.12284,2.33705,-1037.273063,-0.249530132,-10.26257901,12.55742847,0.09394853,0.852436,0.00211882,0.852436,0.00211882,0.15166,36.4323,0.271963,-3009.37,-79.352,2034.49,-0.776796,-825,-1.5,1.29953,29.9154,-7.23E-05,45.00000068,-95.16383886,20925654.64
0.149994,0.1308,12.7648,0.0004,2.6698,45.97220359,-0.029315999,-0.127829315,12.76481113,-0.003348941,0.00502662,64089.80245,2.05672117,1078.981472,-0.093770954,-0.011060362,2.054552664,-0.093770954,-0.011060362,2.054552664,1074.72809,-95.69901215,-1.499689025,0.115886452,1.402713489,-1.499689025,-0.065222356,-0.010833753,2.055658202,-0.077137945,0.002089976,-9.47982498,122.8944455,9.473483245,0.002504768,0.355169296,43.80022078,0.345705993,-3152.830469,53.27370403,0.348210761,-3152.4753,0.328200327,-65.78720866,-0.332202911,-9.09E-05,-81.3439733,1691.468247,-0.94459036,-81.01586385,1625.681038,-1.276793271,518.6544796,2115.886547,4.360660534,4.360660534,-0.006282378,0.795920277,359.9988314,92.61319855,-0.308119107,-1331598.952,0.000626686,4.360660534,6.28616491,0.999474042,1.66092232,1.50698128,0.53182123,34559483.8,7.78998128,1.50698128,86.3500274,1.50698128,0.999995561,0.002979599,0.063771741,0.997964511,1.50400168,0.997960081,0.000190014,1,1,0.523,0.000109648,0.003520784,0.348,0.0058041,0.014510251,0.01242979,-1,-0.044809936,360.025349,-360.025349,360,-0.025349403,-0.000442347,-3.19E-05,7.77E-05,-4.36066053,-0.643903648,-0.077240359,1.97841784,0.002,1,0.19553,1.06852,-886.2173179,-0.76637253,-7.184975974,12.31180514,0.097173655,0.891352,-0.000997252,0.891352,-0.000997252,-0.0555541,1,0.14291,2.28508,-1137.316161,-5.629220478,-9.221045606,15.7999101,0.124479008,0.874453,-0.00112891,0.874453,-0.00112891,-0.0554749,1,0.14199,2.26596,-1129.29699,-0.23431788,-9.156028378,15.68850555,0.12405333,0.874721,-0.00112681,0.874721,-0.00112681,-0.0554168,43.8002,0.345706,-3152.83,-81.344,1691.47,-0.94459,-825,-1.5,1.29953,29.9154,-9.09E-05,45.00000067,-95.16383886,20925654.62
0.158327,0.1531,13.1479,0.0007,1.2985,33.36126144,-0.018951378,-0.150082555,13.14789745,-0.003598792,0.004583677,61200.91786,1.964012497,1078.98117,-0.103906287,-0.011216224,1.961229912,-0.103906287,-0.011216224,1.961229912,1074.721604,-95.76934943,-1.439410594,0.109341884,1.331723162,-1.439410594,-0.07300959,-0.010962344,1.962624394,-0.070371241,0.002113582,-9.001387037,127.9128653,8.992502941,0.002515429,0.405967605,51.62997722,0.421848137,-3278.251406,60.62248016,0.424363566,-3277.845438,0.364084162,-65.77533982,-0.31222782,-0.000111585,-80.39545529,1339.309352,-1.093824088,-80.03148271,1273.534012,-1.406051908,518.6545392,2115.887828,4.34391496,4.34391496,-0.007372802,0.902289411,359.9988151,93.03270456,-0.327210645,-1331589.996,0.000661502,4.34391496,6.28616463,0.999474647,1.66092232,1.50698128,0.53182123,34559483.8,7.78998128,1.50698128,86.3500274,1.50698128,0.999995562,0.002979314,0.063771741,0.997964511,1.50400196,0.997960082,0.000189996,1,1,0.523,0.00012868,0.004088777,0.348,0.00676058,0.016901451,0.01435683,-1,-0.045259777,360.025333,-360.025333,360,-0.025333068,-0.000442062,-3.36E-05,9.51E-05,-4.34391496,-0.674677394,-0.08093198,1.88169241,0.002,1,0.20404,0.944034,-839.29713,-2.168319802,-5.246081052,13.21845596,0.10800194,0.908828,0.000522469,0.908828,0.000522469,0.0400528,1,0.16156,2.19852,-1224.177495,-6.29690768,-7.652117731,19.27978738,0.157283883,0.889078,0.00035846,0.889078,0.00035846,0.0398628,1,0.16048,2.17614,-1214.776781,-3.848162848,-7.593355526,19.13173388,0.156562314,0.889426,0.00036134,0.889426,0.00036134,0.0399176,51.63,0.421848,-3278.25,-80.3955,1339.31,-1.09382,-825,-1.5,1.29953,29.9154,-0.000111585,45.00000067,-95.16383886,20925654.61
0.16666,0.1639,13.4259,0.0009,2.1893,20.66843431,-0.093554781,-0.160908762,13.42589677,-0.003762451,0.004103947,57909.77654,1.858395028,1078.97924,-0.113914701,-0.012986424,1.854854947,-0.113914701,-0.012986424,1.854854947,1074.71266,-95.84894754,-1.370175792,0.100340043,1.251472035,-1.370175792,-0.081141898,-0.012704725,1.856579291,-0.063148828,0.002254504,-8.461664006,133.9955838,8.449621374,0.002695732,0.455677484,59.80135549,0.511103726,-3385.880909,68.25097687,0.513799457,-3385.425232,0.37187583,-65.44043259,-0.293347842,-0.000134116,-79.36673776,982.7799343,-1.253421519,-78.99499605,917.3395017,-1.54676936,518.6545959,2115.889045,4.328000192,4.328000192,-0.008648818,1.0118508,359.9987939,93.51436879,-0.400384933,-1331581.041,0.000696318,4.328000192,6.28616426,0.999475222,1.66092232,1.50698128,0.53182123,34559483.8,7.78998128,1.50698128,86.3500274,1.50698128,0.999995563,0.002978946,0.063771741,0.997964511,1.50400233,0.997960083,0.000189973,1,1,0.523,0.00015095,0.00479577,0.348,0.007656623,0.019141557,0.01651246,-1,-0.052981544,360.025312,-360.025312,360,-0.02531196,-0.000441694,-3.53E-05,0.000115626,-4.32800019,-0.705060252,-0.084576715,1.77200258,0.002,1,0.21146,0.814541,-787.9047013,-1.701372111,-3.417791227,13.9161124,0.118935876,0.918494,-0.000447546,0.918494,-0.000447546,-0.0197823,1,0.17943,2.09619,-1304.318881,-3.284006844,-5.658242412,23.03677329,0.196628632,0.895866,-0.000641676,0.895866,-0.000641676,-0.0198527,1,0.17817,2.07222,-1293.657328,-3.247672675,-5.611991721,22.84846981,0.195539218,0.896288,-0.00063806,0.896288,-0.00063806,-0.0198011,59.8014,0.511104,-3385.88,-79.3667,982.78,-1.25342,-825,-1.5,1.29953,29.9154,-0.000134116,45.00000067,-95.16383886,20925654.59
0.174993,0.1822,13.5981,0.0017,2.3849,8.037230042,-0.069462063,-0.179158041,13.59812677,-0.004547913,0.003605357,54278.17055,1.741851758,1078.978293,-0.123677689,-0.013762317,1.737400925,-0.123677689,-0.013762317,1.737400925,1074.703981,-95.93662537,-1.293351871,0.091602479,1.163141209,-1.293351871,-0.089581091,-0.013456697,1.739494666,-0.055563979,0.002257219,-7.890779236,142.0124928,7.874806124,0.002696158,0.504886752,68.18433272,0.607617429,-3476.080633,76.05913885,0.610313587,-3475.575746,0.386923578,-64.96268679,-0.271405541,-0.00015809,-76.71254409,626.2172345,-1.395276349,-76.32577861,561.2545477,-1.666681891,518.6546492,2115.890191,4.313016329,4.313016329,-0.010015217,1.123728753,359.9987685,94.07175814,-0.452696906,-1331572.085,0.000731134,4.313016329,6.28616381,0.999475763,1.66092232,1.50698128,0.53182123,34559483.8,7.78998128,1.50698128,86.3500274,1.50698128,0.999995564,0.002978502,0.063771741,0.997964511,1.50400277,0.997960084,0.000189944,1,1,0.523,0.000174799,0.005530145,0.348,0.008709607,0.021774018,0.018833175,-1,-0.05739213,360.025287,-360.025287,360,-0.025286535,-0.00044125,-3.70E-05,0.000137786,-4.31301633,-0.735062774,-0.08817583,1.65131884,0.002,1,0.21776,0.682106,-733.0138402,-1.215691915,-1.74787521,14.37842952,0.128131024,0.920482,9.99E-05,0.920482,9.99E-05,0.0136385,1,0.1964,1.98147,-1377.61723,-2.770008028,-3.285292088,27.02228744,0.240532143,0.894972,-8.40E-05,0.894972,-8.40E-05,0.0162573,1,0.19494,1.95483,-1365.449563,-2.753732211,-3.256275073,26.78361577,0.238954261,0.895561,-7.94E-05,0.895561,-7.94E-05,0.0163049,68.1843,0.607617,-3476.08,-76.7125,626.217,-1.39528,-825,-1.5,1.29953,29.9154,-0.00015809,45.00000067,-95.16383886,20925654.58
0.183326,0.2021,13.6651,0.0022,0.8696,-4.402019992,0.056445509,-0.199036984,13.66510093,-0.005132697,0.003104534,50367.3746,1.616349073,1078.977356,-0.133092571,-0.014524037,1.610794756,-0.133092571,-0.014524037,1.610794756,1074.694717,-96.03091062,-1.210271414,0.082278911,1.068202983,-1.210271414,-0.098286715,-0.014197601,1.613295533,-0.047936925,0.002237589,-7.318652029,152.6725383,7.297742697,0.002668246,0.554900792,76.64415162,0.714510374,-3549.356883,83.94189431,0.71717862,-3548.801982,0.398202874,-64.54372809,-0.24958893,-0.000183075,-72.82811939,273.6361467,-1.517551967,-72.43009959,209.0924186,-1.767140897,518.6546989,2115.891259,4.299047284,4.299047284,-0.011533985,1.237041894,359.9987334,94.72335783,-0.514849927,-1331563.13,0.00076595,4.299047284,6.2861632,0.999476268,1.66092232,1.50698128,0.53182123,34559483.8,7.78998128,1.50698128,86.3500274,1.50698128,0.999995566,0.00297789,0.063771741,0.997964511,1.50400339,0.997960086,0.000189905,1,1,0.523,0.000201306,0.006357283,0.348,0.009883798,0.024709495,0.021426385,-1,-0.064142746,360.025251,-360.025251,360,-0.025251424,-0.000440637,-3.87E-05,0.000162614,-4.29904728,-0.764696192,-0.091730668,1.52156486,0.002,1,0.22291,0.548677,-675.568289,-1.826350496,-0.274265128,14.58823753,0.135997151,0.914983,0.000801894,0.914983,0.000801894,0.0566334,1,0.21238,1.85594,-1443.810395,-7.817050856,-0.586527699,31.17730164,0.290361268,0.886721,0.000598471,0.886721,0.000598471,0.0602977,1,0.2107,1.82638,-1429.978199,-2.735166811,-0.580908566,30.87861245,0.288151956,0.887451,0.000604416,0.887451,0.000604416,0.0603378,76.6442,0.71451,-3549.36,-72.8281,273.636,-1.51755,-825,-1.5,1.29953,29.9154,-0.000183075,45.00000066,-95.16383886,20925654.56
0.191659,0.2093,13.6284,0.0018,1.9463,-16.53466013,-0.050197122,-0.206288853,13.62841881,-0.004668333,0.002616263,46237.23457,1.4838075,1078.975383,-0.142074587,-0.01632269,1.47689982,-0.142074587,-0.01632269,1.47689982,1074.683939,-96.13036846,-1.122220172,0.071442656,0.968092211,-1.122220172,-0.107216432,-0.015979503,1.479842556,-0.040547087,0.002260043,-6.774739789,167.0832681,6.747488881,0.002705946,0.608387095,85.04556108,0.832021271,-3606.337555,91.79304996,0.834727218,-3605.729168,0.383532147,-64.40968764,-0.23149716,-0.000208619,-69.090408,-71.29609577,-1.645756184,-68.70708448,-135.7057834,-1.877253344,518.6547448,2115.892244,4.286161147,4.286161147,-0.013218706,1.350913128,359.9986901,95.49482266,-0.630297459,-1331554.174,0.000800766,4.286161147,6.28616244,0.999476733,1.66092232,1.50698128,0.53182123,34559483.8,7.78998128,1.50698128,86.3500274,1.50698128,0.999995568,0.002977133,0.063771741,0.997964511,1.50400414,0.997960088,0.000189857,1,1,0.523,0.00023071,0.00727416,0.348,0.010927344,0.02731836,0.024124863,-1,-0.071521925,360.025208,-360.025208,360,-0.025208098,-0.000439881,-4.04E-05,0.000190348,-4.28616115,-0.79397227,-0.095242642,1.38459991,0.002,1,0.22691,0.416057,-616.4693866,-1.246024597,0.975541977,14.53786884,0.142226713,0.902234,-0.000419798,0.902234,-0.000419798,-0.0200282,1,0.22728,1.72049,-1502.600039,-2.825402837,2.37742452,35.43462625,0.346366665,0.87149,-0.000721274,0.87149,-0.000721274,-0.0200938,1,0.22535,1.68988,-1487.26813,-2.712502625,2.353166261,35.07306599,0.343427893,0.87221,-0.000714216,0.87221,-0.000714216,-0.0200504,85.0456,0.832021,-3606.34,-69.0904,-71.2961,-1.64576,-825,-1.5,1.29953,29.9154,-0.000208619,45.00000066,-95.16383886,20925654.55
0.199992,0.2255,13.4906,0.0022,1.2723,-28.2570825,0.009398691,-0.222513343,13.4906354,-0.005092618,0.002153048,41944.79516,1.346057668,1078.974658,-0.150558061,-0.016874851,1.337504675,-0.150558061,-0.016874851,1.337504675,1074.674037,-96.23391653,-1.030428736,0.061480428,0.86389121,-1.030428736,-0.116326298,-0.016522787,1.340919996,-0.033461152,0.002142404,-6.288005358,187.9195699,6.25228141,0.002561721,0.670153887,93.256297,0.952684475,-3647.734512,99.50857841,0.955246196,-3647.064359,0.376641328,-64.81710031,-0.213396975,-0.000234277,-63.7217159,-405.3072534,-1.734934685,-63.34530885,-470.1243537,-1.94833166,518.6547866,2115.893142,4.27441084,4.27441084,-0.014963979,1.464478689,359.9986473,96.42254254,-0.718307332,-1331545.219,0.000835581,4.27441084,6.2861617,0.999477158,1.66092232,1.50698128,0.53182123,34559483.8,7.78998128,1.50698128,86.3500274,1.50698128,0.999995571,0.002976386,0.063771741,0.997964511,1.50400489,0.99796009,0.000189809,1,1,0.523,0.000261171,0.008200665,0.348,0.012137119,0.030342798,0.026892853,-1,-0.075200969,360.025165,-360.025165,360,-0.025165256,-0.000439134,-4.20E-05,0.000219149,-4.27441084,-0.822903182,-0.098713208,1.24220679,0.002,1,0.22979,0.285875,-556.5575803,-1.338642285,1.984549244,14.22881643,0.145357528,0.882515,0.000227571,0.882515,0.000227571,0.0198339,1,0.24103,1.57859,-1554.133366,-3.589349515,5.541259697,39.73219491,0.405585772,0.84949,-0.000112476,0.84949,-0.000112476,0.0196429,1,0.23884,1.5456,-1537.043567,-3.489158151,5.480326045,39.29528566,0.401741175,0.850329,-0.000103865,0.850329,-0.000103865,0.0196838,93.2563,0.952684,-3647.73,-63.7217,-405.307,-1.73493,-825,-1.5,1.29953,29.9154,-0.000234277,45.00000065,-95.16383887,20925654.54
0.208325,0.2362,13.2552,0.0021,2.4348,-39.48142792,-0.030579481,-0.233120745,13.25516903,-0.005020242,0.001725214,37546.78575,1.204920083,1078.973348,-0.158496718,-0.018020244,1.194314225,-0.158496718,-0.018020244,1.194314225,1074.663288,-96.34015975,-0.936067925,0.050672223,0.756995093,-0.936067925,-0.125571181,-0.017666045,1.198228774,-0.02693204,0.002037917,-5.887940563,218.6221509,5.840305621,0.002440473,0.747929044,101.1515488,1.080254267,-3674.367087,106.9918544,1.08269474,-3673.619158,0.357775608,-66.07223641,-0.19954407,-0.000259634,-57.95215079,-725.4203546,-1.808634794,-57.59463482,-791.492591,-2.008178865,518.6548243,2115.893951,4.263834763,4.263834763,-0.016844765,1.576896098,359.9985976,97.55951591,-0.856921903,-1331536.264,0.000870397,4.263834763,6.28616083,0.99947754,1.66092232,1.50698128,0.53182123,34559483.8,7.78998128,1.50698128,86.3500274,1.50698128,0.999995573,0.002975518,0.063771741,0.997964511,1.50400576,0.997960093,0.000189754,1,1,0.523,0.000293997,0.009213825,0.348,0.013335512,0.033338779,0.029803321,-1,-0.081667346,360.025116,-360.025116,360,-0.025115549,-0.000438266,-4.37E-05,0.000250326,-4.26383476,-0.851501376,-0.102143858,1.09608492,0.002,1,0.23157,0.15963,-496.6321822,-0.091669184,2.745976262,13.67188474,0.146009066,0.856134,-0.000107361,0.856134,-0.000107361,-0.00356084,1,0.25358,1.43098,-1598.278965,-0.91574761,8.836782189,43.99892094,0.469571496,0.821195,-0.000523943,0.821195,-0.000523943,-0.00644797,1,0.25112,1.39643,-1579.45594,-0.896307625,8.732710883,43.48074307,0.464673705,0.822079,-0.000513794,0.822079,-0.000513794,-0.00641019,101.152,1.08025,-3674.37,-57.9522,-725.42,-1.80863,-825,-1.5,1.29953,29.9154,-0.000259634,45.00000065,-95.16383887,20925654.53
0.216658,0.2565,12.9262,0.0024,0.0267,-50.1310195,-0.122838607,-0.253415854,12.92617019,-0.00528091,0.00134053,33097.0776,1.062123528,1078.973222,-0.165863074,-0.01798929,1.048938613,-0.165863074,-0.01798929,1.048938613,1074.653559,-96.44809456,-0.840239702,0.040883785,0.648407393,-0.840239702,-0.134904823,-0.017641425,1.05337356,-0.021002987,0.001842271,-5.605931512,266.9111516,5.540410246,0.002197736,0.854846253,108.6162423,1.210736235,-3687.11317,114.1566525,1.212933972,-3686.258324,0.346053265,-68.55679109,-0.18840239,-0.000284329,-50.45063402,-1029.03229,-1.824095047,-50.10486508,-1097.589081,-2.012497437,518.6548576,2115.894668,4.254457533,4.254457533,-0.018814159,1.687351365,359.9985452,98.98548001,-0.970470647,-1331527.309,0.000905213,4.254457533,6.28615992,0.999477878,1.66092232,1.50698128,0.53182123,34559483.8,7.78998128,1.50698128,86.3500274,1.50698128,0.999995576,0.002974605,0.063771741,0.997964511,1.50400667,0.997960096,0.000189696,1,1,0.523,0.000328369,0.010263556,0.348,0.014739556,0.036848891,0.0329153,-1,-0.086540996,360.025063,-360.025063,360,-0.025063226,-0.000437353,-4.53E-05,0.000283059,-4.25445753,-0.879779459,-0.105536105,0.947837455,0.002,1,0.23228,0.0386455,-437.426035,-3.147358555,3.262572538,12.88594583,0.143637951,0.823423,0.001454,0.823423,0.001454,0.102424,1,0.26489,1.28049,-1635.27006,-6.87594423,12.19635182,48.17229507,0.536647604,0.786938,0.000961922,0.786938,0.000961922,0.096519,1,0.26214,1.24297,-1614.417075,-0.865755094,12.04082379,47.55800136,0.53045068,0.787911,0.000974232,0.787911,0.000974232,0.09657,108.616,1.21074,-3687.11,-50.4506,-1029.03,-1.8241,-825,-1.5,1.29953,29.9154,-0.000284329,45.00000065,-95.16383887,20925654.52
0.224991,0.2562,12.5084,0.0034,1.4480,-75.28486343,-0.073443631,-0.253198631,12.5084283,-0.00631024,0.001004598,28651.50513,0.919459782,1078.971231,-0.17264707,-0.019835155,0.902887505,-0.17264707,-0.019835155,0.902887505,1074.64191,-96.55635288,-0.743975121,0.029174081,0.53949623,-0.743975121,-0.144279981,-0.019501161,0.907859726,-0.006069756,0.000522988,-0.447194097,73.67579457,-0.006069756,0.000522988,-0.447194097,111.9815226,1.306684513,-3573.114866,111.9754529,1.307207501,-3573.562061,0.24331377,-5.991858406,0.017587597,-0.000308063,-39.68172087,-1826.835517,-1.911698152,-39.43871516,-1832.827375,-1.894110555,518.6548867,2115.895293,4.246290822,4.246290822,-0.020952977,1.795065084,359.9984877,0,0,-1331518.354,0.000940029,4.246290822,6.28615891,0.999478173,1.66092232,1.50698128,0.53182123,34559483.8,7.78998128,1.50698128,86.3500274,1.50698128,0.999995579,0.002973601,0.063771741,0.997964511,1.50400768,0.997960099,0.000189632,1,1,0.523,0.000365698,0.011418924,0.348,0.015891227,0.039728067,0.036075905,-1,-0.094439975,360.025006,-360.025006,360,-0.025005668,-0.000436349,-4.69E-05,0.000318761,-4.24629082,-0.907750085,-0.108891465,0.798968262,0.002,1,0.23198,-0.0758806,-265.8077647,-0.797842214,2.482715537,8.330486752,0.097205968,0.784734,-0.000485693,0.784734,-0.000485693,-0.0369251,1,0.27494,1.12656,-1664.922338,-0.257302848,15.55038794,52.17868181,0.60852919,0.747087,-0.000925606,0.747087,-0.000925606,-0.0369867,1,0.27188,1.08907,-1642.384764,-0.830455214,15.33988682,51.47235405,0.600949355,0.74826,-0.000911909,0.74826,-0.000911909,-0.0369536,111.982,1.30668,-3573.11,-39.6817,-1826.84,-1.9117,-825,-1.5,1.29953,29.9154,-0.000308063,45.00000064,-95.16383887,20925654.51
0.233324,0.2683,11.8811,0.0041,0.2874,-100.4011433,0.08300501,-0.265269929,11.88107943,-0.006927786,0.000755259,24842.72481,0.797231504,1078.971275,-0.179969429,-0.019676737,0.776403182,-0.179969429,-0.019676737,0.776403182,1074.63347,-96.65132634,-0.661914014,0.020674401,0.443869888,-0.661914014,-0.154138556,-0.019359587,0.78194922,-0.004563207,0.000469828,-0.364670766,79.91544961,-0.004563207,0.000469828,-0.364670766,114.8512659,1.395782735,-3463.432032,114.8467027,1.396252563,-3463.796703,0.222320405,-4.942364328,0.016018175,-0.000334749,-27.83906944,-2561.54349,-1.955491072,-27.61708379,-2566.485854,-1.939472897,518.6549115,2115.895825,4.239334196,4.239334196,-0.0230905,1.899297757,359.9984188,0,0,-1331509.399,0.000974845,4.239334196,6.28615771,0.999478424,1.66092232,1.50698128,0.53182123,34559483.8,7.78998128,1.50698128,86.3500274,1.50698128,0.999995582,0.002972399,0.063771741,0.997964511,1.50400888,0.997960102,0.000189555,1,1,0.523,0.000403005,0.012537857,0.348,0.017220935,0.043052337,0.039201874,-1,-0.096259206,360.024937,-360.024937,360,-0.024936793,-0.000435147,-4.86E-05,0.000354451,-4.2393342,-0.935425849,-0.112211446,0.669737774,0.002,1,0.23073,-0.154128,-107.0665291,-0.529185618,1.195008486,3.550472317,0.04314857,0.729654,0.000555366,0.729654,0.000555366,0.0397545,1,0.28371,0.989961,-1690.436844,-2.892679742,18.8671425,56.05675608,0.680919558,0.691759,9.13E-05,0.691759,9.13E-05,0.0394643,1,0.28034,0.950697,-1665.928659,-0.791941371,18.59360407,55.24403755,0.671714608,0.693054,0.000107135,0.693054,0.000107135,0.039496,114.851,1.39578,-3463.43,-27.8391,-2561.54,-1.95549,-825,-1.5,1.29953,29.9154,-0.000334749,45.00000064,-95.16383887,20925654.51
0.241657,0.2707,11.0444,0.0034,0.6360,-116.6206086,0.050487372,-0.267669679,11.04443659,-0.006241376,0.000562642,21442.11097,0.68810181,1078.970438,-0.186617843,-0.020417999,0.661997724,-0.186617843,-0.020417999,0.661997724,1074.624936,-96.73731067,-0.587982107,0.012080795,0.357232692,-0.587982107,-0.163420834,-0.020120618,0.668111437,-0.003399404,0.000415886,-0.290407801,85.42903011,-0.003399404,0.000415886,-0.290407801,118.7238755,1.50424892,-3402.700744,118.7204761,1.504664806,-3402.991151,0.194690671,-3.970000434,0.013815805,-0.000359938,-18.45792214,-3035.433699,-1.985905983,-18.26359141,-3039.403699,-1.972090178,518.654933,2115.896288,4.233274754,4.233274754,-0.025329015,1.998302729,359.998343,0,0,-1331500.444,0.001009661,4.233274754,6.28615639,0.999478643,1.66092232,1.50698128,0.53182123,34559483.8,7.78998128,1.50698128,86.3500274,1.50698128,0.999995586,0.002971075,0.063771741,0.997964511,1.5040102,0.997960106,0.000189471,1,1,0.523,0.000442075,0.013731093,0.348,0.01845614,0.04614035,0.042375002,-1,-0.101808596,360.024861,-360.024861,360,-0.024860948,-0.000433824,-5.02E-05,0.000391916,-4.23327475,-0.962817942,-0.115497394,0.552614043,0.002,1,0.22899,-0.203531,-5.114083105,0.000970849,0.065927325,0.178437164,0.002260816,0.659288,5.84E-05,0.659288,5.84E-05,-0.00187815,1,0.2915,0.861674,-1711.958949,0.326217556,22.06898116,59.73208171,0.756474105,0.622253,-0.000522675,0.622253,-0.000522675,-0.0116165,1,0.2878,0.822059,-1685.627712,-0.74669979,21.72954336,58.81335665,0.745513999,0.623462,-0.000505181,0.623462,-0.000505181,-0.0115892,118.724,1.50425,-3402.7,-18.4579,-3035.43,-1.98591,-825,-1.5,1.29953,29.9154,-0.000359938,45.00000063,-95.16383887,20925654.5
0.24999,0.2760,10.0726,0.0030,0.1758,-117.6453424,0.078801866,-0.272973977,10.07263694,-0.005825573,0.000406296,18221.02355,0.584733367,1078.970369,-0.192863132,-0.02039994,0.55163463,-0.192863132,-0.02039994,0.55163463,1074.617415,-96.82045608,-0.516842803,0.004499337,0.273434422,-0.516842803,-0.172614087,-0.020129124,0.558312014,-0.002454765,0.000364148,-0.22356988,91.07589494,-0.002454765,0.000364148,-0.22356988,125.1281005,1.650666029,-3428.223269,125.1256457,1.651030178,-3428.446839,0.169756989,-3.079908467,0.011889086,-0.000384433,-11.99493798,-3063.81391,-1.913013435,-11.82556543,-3066.893818,-1.901124349,518.6549513,2115.896681,4.228139769,4.228139769,-0.027587513,2.090335961,359.9982721,0,0,-1331491.489,0.001044477,4.228139769,6.28615515,0.999478829,1.66092232,1.50698128,0.53182123,34559483.8,7.78998128,1.50698128,86.3500274,1.50698128,0.99999559,0.002969839,0.063771741,0.997964511,1.50401144,0.99796011,0.000189392,1,1,0.523,0.000481493,0.014917826,0.348,0.01973553,0.049338826,0.045530551,-1,-0.104491071,360.02479,-360.02479,360,-0.024790113,-0.000432587,-5.18E-05,0.000429741,-4.22813977,-0.989936275,-0.118750497,0.439561517,0.002,1,0.22685,-0.237908,0,0,0,0,0,0.578987,0.000524706,0.578987,0.000524706,0.0421997,1,0.29824,0.735809,-1728.230644,-0.090845977,25.05830707,63.07938565,0.831788,0.543658,-0.000155678,0.543658,-0.000155678,0.0208778,1,0.29421,0.695419,-1699.992625,-0.699684891,24.64887274,62.04871483,0.81887803,0.544802,-0.000136251,0.544802,-0.000136251,0.0209194,125.128,1.65067,-3428.22,-11.9949,-3063.81,-1.91301,-825,-1.5,1.29953,29.9154,-0.000384433,45.00000063,-95.16383887,20925654.49
0.258323,0.2775,9.0923,0.0023,0.2218,-117.47011,0.027117979,-0.274443472,9.092298187,-0.0051734,0.000270765,14874.69406,0.4773458,1078.970015,-0.198569152,-0.020662227,0.433592409,-0.198569152,-0.020662227,0.433592409,1074.609102,-96.90910842,-0.440386681,-0.003873674,0.184129244,-0.440386681,-0.181976328,-0.020430326,0.44082449,-0.001635903,0.00030318,-0.163305323,99.82579043,-0.001635903,0.00030318,-0.163305323,130.793374,1.797186175,-3444.978721,130.7917381,1.797489355,-3445.142027,0.140114414,-2.272587675,0.009671366,-0.000407517,-5.448341332,-3058.321038,-1.802327253,-5.308634435,-3060.593625,-1.792655887,518.6549663,2115.897002,4.223930813,4.223930813,-0.029890216,2.17427119,359.9982051,0,0,-1331482.534,0.001079293,4.223930813,6.28615398,0.999478981,1.66092232,1.50698128,0.53182123,34559483.8,7.78998128,1.50698128,86.3500274,1.50698128,0.999995593,0.002968669,0.063771741,0.997964511,1.50401261,0.997960113,0.000189317,1,1,0.523,0.000521683,0.016132777,0.348,0.020976201,0.052440502,0.048682881,-1,-0.108074477,360.024723,-360.024723,360,-0.024723101,-0.000431418,-5.33E-05,0.00046835,-4.22393081,-1.0167908,-0.121971947,0.318852542,0.002,1,0.22442,-0.278977,0,0,0,0,0,0.498545,0.000436516,0.498545,0.000436516,0.0352998,1,0.30392,0.602138,-1737.534189,0.913215041,27.74212734,65.9678847,0.906096801,0.465392,-0.000349538,0.465392,-0.000349538,-0.00308645,1,0.29956,0.561535,-1707.444532,0.188783375,27.2617045,64.82548932,0.891089374,0.466427,-0.000328377,0.466427,-0.000328377,-0.00306145,130.793,1.79719,-3444.98,-5.44834,-3058.32,-1.80233,-825,-1.5,1.29953,29.9154,-0.000407517,45.00000062,-95.16383887,20925654.49
0.266656,0.2794,8.1134,0.0021,0.0676,-116.9167463,0.02491227,-0.276295357,8.113419644,-0.004951478,0.000167175,11687.91834,0.375078525,1078.969994,-0.203860434,-0.020592969,0.31416676,-0.203860434,-0.020592969,0.31416676,1074.601019,-96.99879522,-0.362964167,-0.012017511,0.09378962,-0.362964167,-0.191369135,-0.020410181,0.321939712,-0.001010029,0.000241014,-0.113361083,112.2355076,-0.001010029,0.000241014,-0.113361083,135.4965077,1.938381866,-3448.562351,135.4954977,1.93862288,-3448.675712,0.111419983,-1.595845884,0.007619929,-0.000429524,1.672206435,-3042.965883,-1.6447003,1.783196894,-3044.561729,-1.637080372,518.6549775,2115.897244,4.22077363,4.22077363,-0.032205041,2.25003726,359.9981446,0,0,-1331473.579,0.001114109,4.22077363,6.28615292,0.999479095,1.66092232,1.50698128,0.53182123,34559483.8,7.78998128,1.50698128,86.3500274,1.50698128,0.999995597,0.002967612,0.063771741,0.997964511,1.50401366,0.997960116,0.00018925,1,1,0.523,0.000562084,0.017347355,0.348,0.022223167,0.055557916,0.051810045,-1,-0.11052619,360.024663,-360.024663,360,-0.024662535,-0.000430361,-5.49E-05,0.000507182,-4.22077363,-1.04339191,-0.12516299,0.196776723,0.002,1,0.22158,-0.321264,0,0,0,0,0,0.418605,0.000678536,0.418605,0.000678536,0.0715223,1,0.30842,0.467389,-1740.261202,1.411182133,30.09036818,68.37612067,0.977827763,0.38798,-0.000170648,0.38798,-0.000170648,0.014166,1,0.30371,0.426516,-1708.301149,0.234028146,29.53775586,67.12038708,0.960554103,0.388955,-0.000147695,0.388955,-0.000147695,0.014214,135.497,1.93838,-3448.56,1.67221,-3042.97,-1.6447,-825,-1.5,1.29953,29.9154,-0.000429524,45.00000062,-95.16383887,20925654.49
0.274989,0.2788,7.1392,0.0019,0.1844,-116.0410147,-0.005640428,-0.275735746,7.139152282,-0.004747505,9.75E-05,8927.656602,0.286498587,1078.969957,-0.208814285,-0.020544609,0.195079353,-0.208814285,-0.020544609,0.195079353,1074.592927,-97.0882478,-0.285763914,-0.020170589,0.003684228,-0.285763914,-0.200754738,-0.02042032,0.203376465,-0.000589295,0.000184495,-0.075444451,128.0249047,-0.000589295,0.000184495,-0.075444451,139.2415463,2.073709036,-3440.390251,139.2409571,2.073893531,-3440.465695,0.085343916,-1.074152895,0.005789437,-0.000450653,9.053364362,-3019.195642,-1.453419009,9.138257625,-3020.269795,-1.447629573,518.6549853,2115.897411,4.21859109,4.21859109,-0.034535264,2.317646337,359.9980875,0,0,-1331464.625,0.001148924,4.21859109,6.28615193,0.999479174,1.66092232,1.50698128,0.53182123,34559483.8,7.78998128,1.50698128,86.3500274,1.50698128,0.9999956,0.002966616,0.063771741,0.997964511,1.50401466,0.997960119,0.000189186,1,1,0.523,0.000602754,0.018570682,0.348,0.023436785,0.058591962,0.054906954,-1,-0.113107946,360.024605,-360.024605,360,-0.024605465,-0.000429365,-5.65E-05,0.000546293,-4.21859109,-1.06975012,-0.128324885,0.075051579,0.002,1,0.2184,-0.363329,0,0,0,0,0,0.339301,0.000714977,0.339301,0.000714977,0.0889288,1,0.31181,0.333098,-1737.088175,2.087651862,32.08853206,70.30447884,1.046692389,0.311531,-0.000183039,0.311531,-0.000183039,0.00445111,1,0.30677,0.292307,-1703.302076,0.924661285,31.46441503,68.93706751,1.027016647,0.312439,-0.000158475,0.312439,-0.000158475,0.00448427,139.242,2.07371,-3440.39,9.05336,-3019.2,-1.45342,-825,-1.5,1.29953,29.9154,-0.000450653,45.00000061,-95.16383887,20925654.49
0.283322,0.2773,6.1722,0.0020,0.4176,-114.8605709,-0.019576057,-0.274201784,6.17218239,-0.004797696,6.18E-05,7106.83493,0.228066356,1078.970117,-0.213506861,-0.020303749,0.077568299,-0.213506861,-0.020303749,0.077568299,1074.585119,-97.17659626,-0.209640321,-0.028039311,-0.08531703,-0.209640321,-0.210105986,-0.020246634,0.086370199,-0.00037343,0.000145861,-0.05165469,138.3248674,-0.00037343,0.000145861,-0.05165469,142.0074669,2.200757141,-3420.823621,142.0070935,2.200903002,-3420.875276,0.067851981,-0.739820195,0.004583341,-0.000471135,16.76690375,-2987.454021,-1.225913828,16.8342846,-2988.193841,-1.221330487,518.6549896,2115.897503,4.217389233,4.217389233,-0.03686075,2.377136846,359.9980344,0,0,-1331455.67,0.00118374,4.217389233,6.286151,0.999479217,1.66092232,1.50698128,0.53182123,34559483.8,7.78998128,1.50698128,86.3500274,1.50698128,0.999995602,0.00296569,0.063771741,0.997964511,1.50401559,0.997960122,0.000189127,1,1,0.523,0.000643341,0.019787311,0.348,0.024626693,0.061566732,0.057949452,-1,-0.114968649,360.024552,-360.024552,360,-0.02455238,-0.000428439,-5.80E-05,0.000585331,-4.21738923,-1.09587555,-0.131458848,-0.045088649,0.002,1,0.21487,-0.404181,0,0,0,0,0,0.260748,0.000851271,0.260748,0.000851271,0.14035,1,0.31409,0.200618,-1728.204687,2.956066832,33.721852,71.74236298,1.111482929,0.236091,-6.39E-05,0.236091,-6.39E-05,0.0167404,1,0.30871,0.160052,-1692.618934,0.982509871,33.02747967,70.26510393,1.089274212,0.236959,-3.78E-05,0.236959,-3.78E-05,0.0168142,142.007,2.20076,-3420.82,16.7669,-2987.45,-1.22591,-825,-1.5,1.29953,29.9154,-0.000471135,45.0000006,-95.16383887,20925654.49
